[{"name":"Sofia Bike Rental","contact":"www.sofiabikerental.com",
    "type":"rent","latitude":"42.692821","longitude":"23.328738"},
    {"name":"Sofia Rent Center","contact":"www.sofiarentcenter.com",
        "type":"rent","latitude":"42.6674952","longitude":"23.2857399"},
        {"name":"Drag Zone","contact":"www.velomania-bg.com",
            "type":"service","latitude":"42.6700007","longitude":"23.2928839"},
            {"name":"True Riders","contact":"www.trueriders.bg"
                ,"type":"service","latitude":"42.682068","longitude":"23.322313"},
                {"name":"NDK","contact":null,"type":"parking","latitude":"42.685882","longitude":"23.318138"},{"name":"Sofia municipality","contact":null
                    ,"type":"parking","latitude":"42.696701","longitude":"23.332965"}]